{"type":"FeatureCollection","features":[{"type":"Feature","properties":{"id":1,"name":"Bangalore","year_1950":0.745999,"year_1960":1.165978,"year_1970":1.614756,"year_1980":2.812428,"year_1990":4.042598,"year_2000":5.581263,"year_2010":8.295564,"year_2020":12.326532,"year_2030":16.226826},"geometry":{"type":"Point","coordinates":[77.59369,12.97194]}},{"type":"Feature","properties":{"id":2,"name":"Beijing","year_1950":1.671365,"year_1960":3.900441,"year_1970":4.426045,"year_1980":5.366372,"year_1990":6.787737,"year_2000":10.285091,"year_2010":16.441252,"year_2020":20.46261,"year_2030":24.281913},"geometry":{"type":"Point","coordinates":[116.4,39.91]}},{"type":"Feature","properties":{"id":3,"name":"Bogota","year_1950":0.630315,"year_1960":1.268645,"year_1970":2.383425,"year_1980":3.525154,"year_1990":4.740448,"year_2000":6.329384,"year_2010":8.417705,"year_2020":10.97836,"year_2030":12.343364},"geometry":{"type":"Point","coordinates":[-74.08,4.61]}},{"type":"Feature","properties":{"id":4,"name":"Buenos Aires","year_1950":5.16614,"year_1960":6.761837,"year_1970":8.41617,"year_1980":9.919781,"year_1990":11.147566,"year_2000":12.503871,"year_2010":14.245871,"year_2020":15.153729,"year_2030":16.456115},"geometry":{"type":"Point","coordinates":[-58.4,-34.61]}},{"type":"Feature","properties":{"id":5,"name":"Cairo","year_1950":2.493514,"year_1960":3.68016,"year_1970":5.584507,"year_1980":7.348778,"year_1990":9.892143,"year_2000":13.625565,"year_2010":16.899015,"year_2020":20.900604,"year_2030":25.516696},"geometry":{"type":"Point","coordinates":[31.24,30.04]}},{"type":"Feature","properties":{"id":6,"name":"Dhaka","year_1950":0.33576,"year_1960":0.507921,"year_1970":1.373718,"year_1980":3.265663,"year_1990":6.620697,"year_2000":10.284947,"year_2010":14.730537,"year_2020":21.00586,"year_2030":28.07566},"geometry":{"type":"Point","coordinates":[90.41,23.71]}},{"type":"Feature","properties":{"id":7,"name":"Istanbul","year_1950":0.967497,"year_1960":1.453353,"year_1970":2.772095,"year_1980":4.397037,"year_1990":6.55216,"year_2000":8.743868,"year_2010":12.584885,"year_2020":15.190336,"year_2030":17.12424},"geometry":{"type":"Point","coordinates":[28.9497,41.0138]}},{"type":"Feature","properties":{"id":8,"name":"Jakarta","year_1950":1.452,"year_1960":2.67874,"year_1970":3.915406,"year_1980":5.984256,"year_1990":8.174756,"year_2000":8.389759,"year_2010":9.625579,"year_2020":10.770487,"year_2030":12.686756},"geometry":{"type":"Point","coordinates":[106.841646,-6.211831]}},{"type":"Feature","properties":{"id":9,"name":"Kinshasa","year_1950":0.201905,"year_1960":0.442853,"year_1970":1.069714,"year_1980":2.052874,"year_1990":3.683274,"year_2000":6.140419,"year_2010":9.381673,"year_2020":14.342439,"year_2030":21.914342},"geometry":{"type":"Point","coordinates":[15.31,-4.33]}},{"type":"Feature","properties":{"id":10,"name":"Los Angeles","year_1950":4.045514,"year_1960":6.529638,"year_1970":8.377685,"year_1980":9.511568,"year_1990":10.883429,"year_2000":11.798345,"year_2010":12.160151,"year_2020":12.446597,"year_2030":13.209244},"geometry":{"type":"Point","coordinates":[-118.241716,34.031656]}},{"type":"Feature","properties":{"id":11,"name":"Mexico City","year_1950":3.365081,"year_1960":5.479184,"year_1970":8.830947,"year_1980":13.02762,"year_1990":15.642318,"year_2000":18.457027,"year_2010":20.136681,"year_2020":21.782378,"year_2030":24.110599},"geometry":{"type":"Point","coordinates":[-99.141869,19.427318]}},{"type":"Feature","properties":{"id":12,"name":"Moscow","year_1950":5.356392,"year_1960":6.169961,"year_1970":7.106457,"year_1980":8.136141,"year_1990":8.986631,"year_2000":10.004523,"year_2010":11.461264,"year_2020":12.537954,"year_2030":12.795712},"geometry":{"type":"Point","coordinates":[37.621849,55.754996]}},{"type":"Feature","properties":{"id":13,"name":"New York","year_1950":12.338471,"year_1960":14.163521,"year_1970":16.19118,"year_1980":15.601401,"year_1990":16.085599,"year_2000":17.813371,"year_2010":18.365262,"year_2020":18.803552,"year_2030":19.957605},"geometry":{"type":"Point","coordinates":[-74.003663,40.717042]}},{"type":"Feature","properties":{"id":14,"name":"Paris","year_1950":6.283018,"year_1960":7.410735,"year_1970":8.208121,"year_1980":8.669349,"year_1990":9.330327,"year_2000":9.736538,"year_2010":10.460118,"year_2020":11.01723,"year_2030":11.709788},"geometry":{"type":"Point","coordinates":[2.3488,48.85341]}},{"type":"Feature","properties":{"id":15,"name":"Tokyo","year_1950":11.274641,"year_1960":16.678821,"year_1970":23.297503,"year_1980":28.548512,"year_1990":32.530003,"year_2000":34.449908,"year_2010":36.859626,"year_2020":37.393129,"year_2030":36.573799},"geometry":{"type":"Point","coordinates":[139.69171,35.6895]}},{"type":"Feature","properties":{"id":16,"name":"London","year_1950":8.360847,"year_1960":8.195769,"year_1970":7.509405,"year_1980":7.660252,"year_1990":"8.053510","year_2000":8.612709,"year_2010":9.698872,"year_2020":10.849187,"year_2030":11.467322},"geometry":{"type":"Point","coordinates":[-0.12574,51.50853]}},{"type":"Feature","properties":{"id":17,"name":"Sydney","year_1950":1.689935,"year_1960":2.134673,"year_1970":2.892477,"year_1980":3.252111,"year_1990":"3.631940","year_2000":4.052499,"year_2010":"4.364380","year_2020":4.729406,"year_2030":5.300933},"geometry":{"type":"Point","coordinates":[151.21,-33.87]}}]}